{
  "fetched_at_utc": "2026-04-15T23:04:57.411512Z",
  "odds_source": "/Users/robertseipel/Desktop/bettingsim/bettingsim/data/odds/live_mlb_odds.json",
  "games_date_et": "2026-04-15",
  "weather": {
    "Arizona Diamondbacks @ Baltimore Orioles": {
      "venue": "Oriole Park at Camden Yards",
      "latitude": 39.2839,
      "longitude": -76.6217,
      "forecast_hour_utc": "2026-04-15T17:00",
      "commence_time_utc": "2026-04-15T16:35:00Z",
      "temp_f": 89.5,
      "wind_speed_mph": 8.4,
      "wind_direction_deg": 224,
      "precip_prob": 0
    },
    "Cleveland Guardians @ St. Louis Cardinals": {
      "venue": "Busch Stadium",
      "latitude": 38.6226,
      "longitude": -90.1928,
      "forecast_hour_utc": "2026-04-15T17:00",
      "commence_time_utc": "2026-04-15T17:15:00Z",
      "temp_f": 70.4,
      "wind_speed_mph": 9.0,
      "wind_direction_deg": 199,
      "precip_prob": 46
    },
    "Boston Red Sox @ Minnesota Twins": {
      "venue": "Target Field",
      "latitude": 44.9817,
      "longitude": -93.2776,
      "forecast_hour_utc": "2026-04-15T18:00",
      "commence_time_utc": "2026-04-15T17:40:00Z",
      "temp_f": 62.2,
      "wind_speed_mph": 3.9,
      "wind_direction_deg": 336,
      "precip_prob": 1
    },
    "Kansas City Royals @ Detroit Tigers": {
      "venue": "Comerica Park",
      "latitude": 42.339,
      "longitude": -83.0485,
      "forecast_hour_utc": "2026-04-15T23:00",
      "commence_time_utc": "2026-04-15T22:40:00Z",
      "temp_f": 68.3,
      "wind_speed_mph": 8.8,
      "wind_direction_deg": 232,
      "precip_prob": 11
    },
    "Washington Nationals @ Pittsburgh Pirates": {
      "venue": "PNC Park",
      "latitude": 40.4469,
      "longitude": -80.0057,
      "forecast_hour_utc": "2026-04-15T23:00",
      "commence_time_utc": "2026-04-15T22:40:00Z",
      "temp_f": 81.4,
      "wind_speed_mph": 11.7,
      "wind_direction_deg": 220,
      "precip_prob": 9
    },
    "San Francisco Giants @ Cincinnati Reds": {
      "venue": "Great American Ball Park",
      "latitude": 39.0974,
      "longitude": -84.5066,
      "forecast_hour_utc": "2026-04-15T23:00",
      "commence_time_utc": "2026-04-15T22:40:00Z",
      "temp_f": 82.9,
      "wind_speed_mph": 10.7,
      "wind_direction_deg": 216,
      "precip_prob": 3
    },
    "Chicago Cubs @ Philadelphia Phillies": {
      "venue": "Citizens Bank Park",
      "latitude": 39.9061,
      "longitude": -75.1665,
      "forecast_hour_utc": "2026-04-15T23:00",
      "commence_time_utc": "2026-04-15T22:40:00Z",
      "temp_f": 85.9,
      "wind_speed_mph": 8.6,
      "wind_direction_deg": 211,
      "precip_prob": 1
    },
    "Los Angeles Angels @ New York Yankees": {
      "venue": "Yankee Stadium",
      "latitude": 40.8296,
      "longitude": -73.9265,
      "forecast_hour_utc": "2026-04-15T23:00",
      "commence_time_utc": "2026-04-15T23:05:00Z",
      "temp_f": 86.8,
      "wind_speed_mph": 10.9,
      "wind_direction_deg": 227,
      "precip_prob": 4
    },
    "Miami Marlins @ Atlanta Braves": {
      "venue": "Truist Park",
      "latitude": 33.8906,
      "longitude": -84.4678,
      "forecast_hour_utc": "2026-04-15T23:00",
      "commence_time_utc": "2026-04-15T23:15:00Z",
      "temp_f": 82.1,
      "wind_speed_mph": 7.0,
      "wind_direction_deg": 220,
      "precip_prob": 0
    },
    "Tampa Bay Rays @ Chicago White Sox": {
      "venue": "Rate Field",
      "latitude": 41.8299,
      "longitude": -87.6338,
      "forecast_hour_utc": "2026-04-16T00:00",
      "commence_time_utc": "2026-04-15T23:40:00Z",
      "temp_f": 68.7,
      "wind_speed_mph": 6.3,
      "wind_direction_deg": 186,
      "precip_prob": 12
    },
    "Toronto Blue Jays @ Milwaukee Brewers": {
      "venue": "American Family Field",
      "latitude": 43.028,
      "longitude": -87.9712,
      "forecast_hour_utc": "2026-04-16T00:00",
      "commence_time_utc": "2026-04-15T23:40:00Z",
      "temp_f": 65.0,
      "wind_speed_mph": 3.2,
      "wind_direction_deg": 39,
      "precip_prob": 29
    },
    "Colorado Rockies @ Houston Astros": {
      "venue": "Daikin Park",
      "latitude": 29.7573,
      "longitude": -95.3555,
      "forecast_hour_utc": "2026-04-16T00:00",
      "commence_time_utc": "2026-04-16T00:10:00Z",
      "temp_f": 75.3,
      "wind_speed_mph": 9.4,
      "wind_direction_deg": 162,
      "precip_prob": 0
    },
    "Seattle Mariners @ San Diego Padres": {
      "venue": "Petco Park",
      "latitude": 32.7073,
      "longitude": -117.157,
      "forecast_hour_utc": "2026-04-16T02:00",
      "commence_time_utc": "2026-04-16T01:40:00Z",
      "temp_f": 63.6,
      "wind_speed_mph": 6.3,
      "wind_direction_deg": 312,
      "precip_prob": 0
    },
    "Texas Rangers @ Athletics": {
      "venue": "Sutter Health Park",
      "latitude": 38.5804,
      "longitude": -121.5138,
      "forecast_hour_utc": "2026-04-16T02:00",
      "commence_time_utc": "2026-04-16T01:40:00Z",
      "temp_f": 63.0,
      "wind_speed_mph": 9.7,
      "wind_direction_deg": 214,
      "precip_prob": 2
    },
    "New York Mets @ Los Angeles Dodgers": {
      "venue": "Dodger Stadium",
      "latitude": 34.0739,
      "longitude": -118.24,
      "forecast_hour_utc": "2026-04-16T02:00",
      "commence_time_utc": "2026-04-16T02:10:00Z",
      "temp_f": 62.5,
      "wind_speed_mph": 6.4,
      "wind_direction_deg": 260,
      "precip_prob": 0
    }
  },
  "errors": []
}