{
  "fetched_at_utc": "2026-04-25T17:57:07.761253Z",
  "odds_source": "/Users/robertseipel/Desktop/bettingsim/bettingsim/data/odds/live_mlb_odds.json",
  "games_date_et": "2026-04-25",
  "weather": {
    "Boston Red Sox @ Baltimore Orioles": {
      "venue": "Oriole Park at Camden Yards",
      "latitude": 39.2839,
      "longitude": -76.6217,
      "forecast_hour_utc": "2026-04-25T16:00",
      "commence_time_utc": "2026-04-25T16:05:00Z",
      "temp_f": 58.5,
      "wind_speed_mph": 10.1,
      "wind_direction_deg": 95,
      "precip_prob": 1
    },
    "Seattle Mariners @ St. Louis Cardinals": {
      "venue": "Busch Stadium",
      "latitude": 38.6226,
      "longitude": -90.1928,
      "forecast_hour_utc": "2026-04-25T18:00",
      "commence_time_utc": "2026-04-25T18:15:00Z",
      "temp_f": 74.0,
      "wind_speed_mph": 7.6,
      "wind_direction_deg": 71,
      "precip_prob": 0
    },
    "Cleveland Guardians @ Toronto Blue Jays": {
      "venue": "Rogers Centre",
      "latitude": 43.6414,
      "longitude": -79.3894,
      "forecast_hour_utc": "2026-04-25T19:00",
      "commence_time_utc": "2026-04-25T19:07:00Z",
      "temp_f": 42.6,
      "wind_speed_mph": 10.9,
      "wind_direction_deg": 15,
      "precip_prob": 31
    },
    "Miami Marlins @ San Francisco Giants": {
      "venue": "Oracle Park",
      "latitude": 37.7786,
      "longitude": -122.3893,
      "forecast_hour_utc": "2026-04-25T20:00",
      "commence_time_utc": "2026-04-25T20:05:00Z",
      "temp_f": 53.5,
      "wind_speed_mph": 7.9,
      "wind_direction_deg": 278,
      "precip_prob": 10
    },
    "Minnesota Twins @ Tampa Bay Rays": {
      "venue": "Tropicana Field",
      "latitude": 27.7682,
      "longitude": -82.6534,
      "forecast_hour_utc": "2026-04-25T20:00",
      "commence_time_utc": "2026-04-25T20:10:00Z",
      "temp_f": 81.2,
      "wind_speed_mph": 9.9,
      "wind_direction_deg": 237,
      "precip_prob": 1
    },
    "Washington Nationals @ Chicago White Sox": {
      "venue": "Rate Field",
      "latitude": 41.8299,
      "longitude": -87.6338,
      "forecast_hour_utc": "2026-04-25T20:00",
      "commence_time_utc": "2026-04-25T20:10:00Z",
      "temp_f": 47.4,
      "wind_speed_mph": 14.0,
      "wind_direction_deg": 16,
      "precip_prob": 0
    },
    "San Diego Padres @ Arizona Diamondbacks": {
      "venue": "Chase Field",
      "latitude": 33.4453,
      "longitude": -112.0667,
      "forecast_hour_utc": "2026-04-25T22:00",
      "commence_time_utc": "2026-04-25T22:05:00Z",
      "temp_f": 83.7,
      "wind_speed_mph": 12.5,
      "wind_direction_deg": 259,
      "precip_prob": 1
    },
    "Athletics @ Texas Rangers": {
      "venue": "Globe Life Field",
      "latitude": 32.7473,
      "longitude": -97.0819,
      "forecast_hour_utc": "2026-04-25T23:00",
      "commence_time_utc": "2026-04-25T23:05:00Z",
      "temp_f": 88.3,
      "wind_speed_mph": 14.1,
      "wind_direction_deg": 182,
      "precip_prob": 1
    },
    "Los Angeles Angels @ Kansas City Royals": {
      "venue": "Kauffman Stadium",
      "latitude": 39.0514,
      "longitude": -94.4805,
      "forecast_hour_utc": "2026-04-25T23:00",
      "commence_time_utc": "2026-04-25T23:10:00Z",
      "temp_f": 76.2,
      "wind_speed_mph": 7.9,
      "wind_direction_deg": 110,
      "precip_prob": 4
    },
    "New York Yankees @ Houston Astros": {
      "venue": "Daikin Park",
      "latitude": 29.7573,
      "longitude": -95.3555,
      "forecast_hour_utc": "2026-04-25T23:00",
      "commence_time_utc": "2026-04-25T23:10:00Z",
      "temp_f": 81.8,
      "wind_speed_mph": 9.2,
      "wind_direction_deg": 137,
      "precip_prob": 2
    },
    "Pittsburgh Pirates @ Milwaukee Brewers": {
      "venue": "American Family Field",
      "latitude": 43.028,
      "longitude": -87.9712,
      "forecast_hour_utc": "2026-04-25T23:00",
      "commence_time_utc": "2026-04-25T23:10:00Z",
      "temp_f": 47.1,
      "wind_speed_mph": 11.0,
      "wind_direction_deg": 38,
      "precip_prob": 0
    },
    "Detroit Tigers @ Cincinnati Reds": {
      "venue": "Great American Ball Park",
      "latitude": 39.0974,
      "longitude": -84.5066,
      "forecast_hour_utc": "2026-04-25T23:00",
      "commence_time_utc": "2026-04-25T23:15:00Z",
      "temp_f": 72.9,
      "wind_speed_mph": 7.9,
      "wind_direction_deg": 345,
      "precip_prob": 0
    },
    "Chicago Cubs @ Los Angeles Dodgers": {
      "venue": "Dodger Stadium",
      "latitude": 34.0739,
      "longitude": -118.24,
      "forecast_hour_utc": "2026-04-25T23:00",
      "commence_time_utc": "2026-04-25T23:15:00Z",
      "temp_f": 60.7,
      "wind_speed_mph": 11.6,
      "wind_direction_deg": 245,
      "precip_prob": 4
    },
    "Philadelphia Phillies @ Atlanta Braves": {
      "venue": "Truist Park",
      "latitude": 33.8906,
      "longitude": -84.4678,
      "forecast_hour_utc": "2026-04-25T23:00",
      "commence_time_utc": "2026-04-25T23:15:00Z",
      "temp_f": 69.9,
      "wind_speed_mph": 7.5,
      "wind_direction_deg": 233,
      "precip_prob": 26
    }
  },
  "errors": []
}