{
  "fetched_at_utc": "2026-04-20T21:03:31.694153Z",
  "odds_source": "/Users/robertseipel/Desktop/bettingsim/bettingsim/data/odds/live_mlb_odds.json",
  "games_date_et": "2026-04-20",
  "weather": {
    "Detroit Tigers @ Boston Red Sox": {
      "venue": "Fenway Park",
      "latitude": 42.3467,
      "longitude": -71.0972,
      "forecast_hour_utc": "2026-04-20T15:00",
      "commence_time_utc": "2026-04-20T15:10:00Z",
      "temp_f": 47.6,
      "wind_speed_mph": 10.1,
      "wind_direction_deg": 269,
      "precip_prob": 0
    },
    "Houston Astros @ Cleveland Guardians": {
      "venue": "Progressive Field",
      "latitude": 41.4962,
      "longitude": -81.6852,
      "forecast_hour_utc": "2026-04-20T22:00",
      "commence_time_utc": "2026-04-20T22:10:00Z",
      "temp_f": 38.5,
      "wind_speed_mph": 4.8,
      "wind_direction_deg": 332,
      "precip_prob": 0
    },
    "Cincinnati Reds @ Tampa Bay Rays": {
      "venue": "Tropicana Field",
      "latitude": 27.7682,
      "longitude": -82.6534,
      "forecast_hour_utc": "2026-04-20T23:00",
      "commence_time_utc": "2026-04-20T22:40:00Z",
      "temp_f": 79.4,
      "wind_speed_mph": 12.5,
      "wind_direction_deg": 35,
      "precip_prob": 0
    },
    "St. Louis Cardinals @ Miami Marlins": {
      "venue": "loanDepot park",
      "latitude": 25.7781,
      "longitude": -80.2197,
      "forecast_hour_utc": "2026-04-20T23:00",
      "commence_time_utc": "2026-04-20T22:40:00Z",
      "temp_f": 72.9,
      "wind_speed_mph": 13.0,
      "wind_direction_deg": 29,
      "precip_prob": 23
    },
    "Atlanta Braves @ Washington Nationals": {
      "venue": "Nationals Park",
      "latitude": 38.873,
      "longitude": -77.0075,
      "forecast_hour_utc": "2026-04-20T23:00",
      "commence_time_utc": "2026-04-20T22:45:00Z",
      "temp_f": 51.3,
      "wind_speed_mph": 13.0,
      "wind_direction_deg": 314,
      "precip_prob": 0
    },
    "Baltimore Orioles @ Kansas City Royals": {
      "venue": "Kauffman Stadium",
      "latitude": 39.0514,
      "longitude": -94.4805,
      "forecast_hour_utc": "2026-04-21T00:00",
      "commence_time_utc": "2026-04-20T23:40:00Z",
      "temp_f": 71.1,
      "wind_speed_mph": 13.2,
      "wind_direction_deg": 208,
      "precip_prob": 0
    },
    "Philadelphia Phillies @ Chicago Cubs": {
      "venue": "Wrigley Field",
      "latitude": 41.9484,
      "longitude": -87.6553,
      "forecast_hour_utc": "2026-04-21T00:00",
      "commence_time_utc": "2026-04-20T23:40:00Z",
      "temp_f": 47.6,
      "wind_speed_mph": 10.8,
      "wind_direction_deg": 130,
      "precip_prob": 1
    },
    "Los Angeles Dodgers @ Colorado Rockies": {
      "venue": "Coors Field",
      "latitude": 39.756,
      "longitude": -104.994,
      "forecast_hour_utc": "2026-04-21T01:00",
      "commence_time_utc": "2026-04-21T00:40:00Z",
      "temp_f": 75.1,
      "wind_speed_mph": 5.8,
      "wind_direction_deg": 77,
      "precip_prob": 0
    },
    "Toronto Blue Jays @ Los Angeles Angels": {
      "venue": "Angel Stadium",
      "latitude": 33.8003,
      "longitude": -117.8827,
      "forecast_hour_utc": "2026-04-21T02:00",
      "commence_time_utc": "2026-04-21T01:38:00Z",
      "temp_f": 66.4,
      "wind_speed_mph": 7.3,
      "wind_direction_deg": 232,
      "precip_prob": 0
    },
    "Athletics @ Seattle Mariners": {
      "venue": "T-Mobile Park",
      "latitude": 47.5914,
      "longitude": -122.3325,
      "forecast_hour_utc": "2026-04-21T02:00",
      "commence_time_utc": "2026-04-21T01:40:00Z",
      "temp_f": 64.5,
      "wind_speed_mph": 1.1,
      "wind_direction_deg": 79,
      "precip_prob": 4
    }
  },
  "errors": []
}