{
  "fetched_at_utc": "2026-04-14T21:42:03.827661Z",
  "odds_source": "/Users/robertseipel/Desktop/bettingsim/bettingsim/data/odds/live_mlb_odds.json",
  "games_date_et": "2026-04-14",
  "weather": {
    "Arizona Diamondbacks @ Baltimore Orioles": {
      "venue": "Oriole Park at Camden Yards",
      "latitude": 39.2839,
      "longitude": -76.6217,
      "forecast_hour_utc": "2026-04-14T23:00",
      "commence_time_utc": "2026-04-14T22:35:00Z",
      "temp_f": 85.3,
      "wind_speed_mph": 8.3,
      "wind_direction_deg": 213,
      "precip_prob": 5
    },
    "Kansas City Royals @ Detroit Tigers": {
      "venue": "Comerica Park",
      "latitude": 42.339,
      "longitude": -83.0485,
      "forecast_hour_utc": "2026-04-14T23:00",
      "commence_time_utc": "2026-04-14T22:40:00Z",
      "temp_f": 78.4,
      "wind_speed_mph": 10.5,
      "wind_direction_deg": 220,
      "precip_prob": 7
    },
    "Washington Nationals @ Pittsburgh Pirates": {
      "venue": "PNC Park",
      "latitude": 40.4469,
      "longitude": -80.0057,
      "forecast_hour_utc": "2026-04-14T23:00",
      "commence_time_utc": "2026-04-14T22:40:00Z",
      "temp_f": 77.4,
      "wind_speed_mph": 9.9,
      "wind_direction_deg": 234,
      "precip_prob": 24
    },
    "San Francisco Giants @ Cincinnati Reds": {
      "venue": "Great American Ball Park",
      "latitude": 39.0974,
      "longitude": -84.5066,
      "forecast_hour_utc": "2026-04-14T23:00",
      "commence_time_utc": "2026-04-14T22:40:00Z",
      "temp_f": 82.5,
      "wind_speed_mph": 12.3,
      "wind_direction_deg": 218,
      "precip_prob": 5
    },
    "Chicago Cubs @ Philadelphia Phillies": {
      "venue": "Citizens Bank Park",
      "latitude": 39.9061,
      "longitude": -75.1665,
      "forecast_hour_utc": "2026-04-14T23:00",
      "commence_time_utc": "2026-04-14T22:40:00Z",
      "temp_f": 82.9,
      "wind_speed_mph": 10.6,
      "wind_direction_deg": 202,
      "precip_prob": 1
    },
    "Los Angeles Angels @ New York Yankees": {
      "venue": "Yankee Stadium",
      "latitude": 40.8296,
      "longitude": -73.9265,
      "forecast_hour_utc": "2026-04-14T23:00",
      "commence_time_utc": "2026-04-14T23:05:00Z",
      "temp_f": 83.3,
      "wind_speed_mph": 12.7,
      "wind_direction_deg": 225,
      "precip_prob": 1
    },
    "Miami Marlins @ Atlanta Braves": {
      "venue": "Truist Park",
      "latitude": 33.8906,
      "longitude": -84.4678,
      "forecast_hour_utc": "2026-04-14T23:00",
      "commence_time_utc": "2026-04-14T23:15:00Z",
      "temp_f": 81.0,
      "wind_speed_mph": 6.8,
      "wind_direction_deg": 218,
      "precip_prob": 0
    },
    "Boston Red Sox @ Minnesota Twins": {
      "venue": "Target Field",
      "latitude": 44.9817,
      "longitude": -93.2776,
      "forecast_hour_utc": "2026-04-15T00:00",
      "commence_time_utc": "2026-04-14T23:40:00Z",
      "temp_f": 61.3,
      "wind_speed_mph": 7.2,
      "wind_direction_deg": 4,
      "precip_prob": 2
    },
    "Tampa Bay Rays @ Chicago White Sox": {
      "venue": "Rate Field",
      "latitude": 41.8299,
      "longitude": -87.6338,
      "forecast_hour_utc": "2026-04-15T00:00",
      "commence_time_utc": "2026-04-14T23:40:00Z",
      "temp_f": 76.6,
      "wind_speed_mph": 10.1,
      "wind_direction_deg": 205,
      "precip_prob": 14
    },
    "Toronto Blue Jays @ Milwaukee Brewers": {
      "venue": "American Family Field",
      "latitude": 43.028,
      "longitude": -87.9712,
      "forecast_hour_utc": "2026-04-15T00:00",
      "commence_time_utc": "2026-04-14T23:40:00Z",
      "temp_f": 62.0,
      "wind_speed_mph": 4.8,
      "wind_direction_deg": 112,
      "precip_prob": 28
    },
    "Cleveland Guardians @ St. Louis Cardinals": {
      "venue": "Busch Stadium",
      "latitude": 38.6226,
      "longitude": -90.1928,
      "forecast_hour_utc": "2026-04-15T00:00",
      "commence_time_utc": "2026-04-14T23:45:00Z",
      "temp_f": 84.1,
      "wind_speed_mph": 12.4,
      "wind_direction_deg": 197,
      "precip_prob": 3
    },
    "Colorado Rockies @ Houston Astros": {
      "venue": "Daikin Park",
      "latitude": 29.7573,
      "longitude": -95.3555,
      "forecast_hour_utc": "2026-04-15T00:00",
      "commence_time_utc": "2026-04-15T00:10:00Z",
      "temp_f": 75.0,
      "wind_speed_mph": 10.5,
      "wind_direction_deg": 153,
      "precip_prob": 0
    },
    "Seattle Mariners @ San Diego Padres": {
      "venue": "Petco Park",
      "latitude": 32.7073,
      "longitude": -117.157,
      "forecast_hour_utc": "2026-04-15T02:00",
      "commence_time_utc": "2026-04-15T01:40:00Z",
      "temp_f": 63.4,
      "wind_speed_mph": 8.1,
      "wind_direction_deg": 321,
      "precip_prob": 0
    },
    "Texas Rangers @ Athletics": {
      "venue": "Sutter Health Park",
      "latitude": 38.5804,
      "longitude": -121.5138,
      "forecast_hour_utc": "2026-04-15T02:00",
      "commence_time_utc": "2026-04-15T01:40:00Z",
      "temp_f": 62.5,
      "wind_speed_mph": 7.1,
      "wind_direction_deg": 224,
      "precip_prob": 1
    },
    "New York Mets @ Los Angeles Dodgers": {
      "venue": "Dodger Stadium",
      "latitude": 34.0739,
      "longitude": -118.24,
      "forecast_hour_utc": "2026-04-15T02:00",
      "commence_time_utc": "2026-04-15T02:10:00Z",
      "temp_f": 62.4,
      "wind_speed_mph": 7.2,
      "wind_direction_deg": 254,
      "precip_prob": 0
    }
  },
  "errors": []
}