{
  "fetched_at_utc": "2026-04-16T11:44:53.464713Z",
  "odds_source": "/Users/robertseipel/Desktop/bettingsim/bettingsim/data/odds/live_mlb_odds.json",
  "games_date_et": "2026-04-16",
  "weather": {
    "Washington Nationals @ Pittsburgh Pirates": {
      "venue": "PNC Park",
      "latitude": 40.4469,
      "longitude": -80.0057,
      "forecast_hour_utc": "2026-04-16T17:00",
      "commence_time_utc": "2026-04-16T16:35:00Z",
      "temp_f": 82.2,
      "wind_speed_mph": 16.8,
      "wind_direction_deg": 221,
      "precip_prob": 0
    },
    "San Francisco Giants @ Cincinnati Reds": {
      "venue": "Great American Ball Park",
      "latitude": 39.0974,
      "longitude": -84.5066,
      "forecast_hour_utc": "2026-04-16T17:00",
      "commence_time_utc": "2026-04-16T16:40:00Z",
      "temp_f": 77.3,
      "wind_speed_mph": 14.9,
      "wind_direction_deg": 229,
      "precip_prob": 6
    },
    "Kansas City Royals @ Detroit Tigers": {
      "venue": "Comerica Park",
      "latitude": 42.339,
      "longitude": -83.0485,
      "forecast_hour_utc": "2026-04-16T17:00",
      "commence_time_utc": "2026-04-16T17:10:00Z",
      "temp_f": 64.4,
      "wind_speed_mph": 6.7,
      "wind_direction_deg": 255,
      "precip_prob": 45
    },
    "Los Angeles Angels @ New York Yankees": {
      "venue": "Yankee Stadium",
      "latitude": 40.8296,
      "longitude": -73.9265,
      "forecast_hour_utc": "2026-04-16T18:00",
      "commence_time_utc": "2026-04-16T17:35:00Z",
      "temp_f": 90.8,
      "wind_speed_mph": 10.8,
      "wind_direction_deg": 198,
      "precip_prob": 0
    },
    "Toronto Blue Jays @ Milwaukee Brewers": {
      "venue": "American Family Field",
      "latitude": 43.028,
      "longitude": -87.9712,
      "forecast_hour_utc": "2026-04-16T18:00",
      "commence_time_utc": "2026-04-16T17:40:00Z",
      "temp_f": 58.9,
      "wind_speed_mph": 5.9,
      "wind_direction_deg": 11,
      "precip_prob": 12
    },
    "Tampa Bay Rays @ Chicago White Sox": {
      "venue": "Rate Field",
      "latitude": 41.8299,
      "longitude": -87.6338,
      "forecast_hour_utc": "2026-04-16T18:00",
      "commence_time_utc": "2026-04-16T18:10:00Z",
      "temp_f": 65.6,
      "wind_speed_mph": 13.5,
      "wind_direction_deg": 309,
      "precip_prob": 19
    },
    "Texas Rangers @ Athletics": {
      "venue": "Sutter Health Park",
      "latitude": 38.5804,
      "longitude": -121.5138,
      "forecast_hour_utc": "2026-04-16T19:00",
      "commence_time_utc": "2026-04-16T19:05:00Z",
      "temp_f": 64.1,
      "wind_speed_mph": 15.6,
      "wind_direction_deg": 353,
      "precip_prob": 0
    },
    "Baltimore Orioles @ Cleveland Guardians": {
      "venue": "Progressive Field",
      "latitude": 41.4962,
      "longitude": -81.6852,
      "forecast_hour_utc": "2026-04-16T22:00",
      "commence_time_utc": "2026-04-16T22:10:00Z",
      "temp_f": 63.4,
      "wind_speed_mph": 5.9,
      "wind_direction_deg": 279,
      "precip_prob": 13
    },
    "Colorado Rockies @ Houston Astros": {
      "venue": "Daikin Park",
      "latitude": 29.7573,
      "longitude": -95.3555,
      "forecast_hour_utc": "2026-04-17T00:00",
      "commence_time_utc": "2026-04-17T00:10:00Z",
      "temp_f": 75.3,
      "wind_speed_mph": 11.1,
      "wind_direction_deg": 166,
      "precip_prob": 0
    },
    "Seattle Mariners @ San Diego Padres": {
      "venue": "Petco Park",
      "latitude": 32.7073,
      "longitude": -117.157,
      "forecast_hour_utc": "2026-04-17T01:00",
      "commence_time_utc": "2026-04-17T00:40:00Z",
      "temp_f": 63.9,
      "wind_speed_mph": 7.1,
      "wind_direction_deg": 229,
      "precip_prob": 0
    }
  },
  "errors": []
}