{
  "fetched_at_utc": "2026-05-03T14:19:02.969239Z",
  "odds_source": "/Users/robertseipel/Desktop/bettingsim/bettingsim/data/odds/live_mlb_odds.json",
  "games_date_et": "2026-05-03",
  "weather": {
    "Toronto Blue Jays @ Minnesota Twins": {
      "venue": "Target Field",
      "latitude": 44.9817,
      "longitude": -93.2776,
      "forecast_hour_utc": "2026-05-03T17:00",
      "commence_time_utc": "2026-05-03T16:45:00Z",
      "temp_f": 66.3,
      "wind_speed_mph": 12.7,
      "wind_direction_deg": 328,
      "precip_prob": 0
    },
    "Houston Astros @ Boston Red Sox": {
      "venue": "Fenway Park",
      "latitude": 42.3467,
      "longitude": -71.0972,
      "forecast_hour_utc": "2026-05-03T18:00",
      "commence_time_utc": "2026-05-03T17:35:00Z",
      "temp_f": 53.6,
      "wind_speed_mph": 15.0,
      "wind_direction_deg": 308,
      "precip_prob": 1
    },
    "Cincinnati Reds @ Pittsburgh Pirates": {
      "venue": "PNC Park",
      "latitude": 40.4469,
      "longitude": -80.0057,
      "forecast_hour_utc": "2026-05-03T18:00",
      "commence_time_utc": "2026-05-03T17:35:00Z",
      "temp_f": 58.7,
      "wind_speed_mph": 12.8,
      "wind_direction_deg": 255,
      "precip_prob": 0
    },
    "Baltimore Orioles @ New York Yankees": {
      "venue": "Yankee Stadium",
      "latitude": 40.8296,
      "longitude": -73.9265,
      "forecast_hour_utc": "2026-05-03T18:00",
      "commence_time_utc": "2026-05-03T17:35:00Z",
      "temp_f": 56.3,
      "wind_speed_mph": 16.8,
      "wind_direction_deg": 295,
      "precip_prob": 0
    },
    "Milwaukee Brewers @ Washington Nationals": {
      "venue": "Nationals Park",
      "latitude": 38.873,
      "longitude": -77.0075,
      "forecast_hour_utc": "2026-05-03T18:00",
      "commence_time_utc": "2026-05-03T17:35:00Z",
      "temp_f": 60.5,
      "wind_speed_mph": 12.5,
      "wind_direction_deg": 297,
      "precip_prob": 0
    },
    "San Francisco Giants @ Tampa Bay Rays": {
      "venue": "Tropicana Field",
      "latitude": 27.7682,
      "longitude": -82.6534,
      "forecast_hour_utc": "2026-05-03T18:00",
      "commence_time_utc": "2026-05-03T17:40:00Z",
      "temp_f": 76.2,
      "wind_speed_mph": 9.5,
      "wind_direction_deg": 41,
      "precip_prob": 0
    },
    "Philadelphia Phillies @ Miami Marlins": {
      "venue": "loanDepot park",
      "latitude": 25.7781,
      "longitude": -80.2197,
      "forecast_hour_utc": "2026-05-03T18:00",
      "commence_time_utc": "2026-05-03T17:40:00Z",
      "temp_f": 75.5,
      "wind_speed_mph": 1.4,
      "wind_direction_deg": 39,
      "precip_prob": 29
    },
    "Los Angeles Dodgers @ St. Louis Cardinals": {
      "venue": "Busch Stadium",
      "latitude": 38.6226,
      "longitude": -90.1928,
      "forecast_hour_utc": "2026-05-03T18:00",
      "commence_time_utc": "2026-05-03T18:15:00Z",
      "temp_f": 68.9,
      "wind_speed_mph": 14.4,
      "wind_direction_deg": 208,
      "precip_prob": 1
    },
    "Arizona Diamondbacks @ Chicago Cubs": {
      "venue": "Wrigley Field",
      "latitude": 41.9484,
      "longitude": -87.6553,
      "forecast_hour_utc": "2026-05-03T18:00",
      "commence_time_utc": "2026-05-03T18:20:00Z",
      "temp_f": 51.9,
      "wind_speed_mph": 15.9,
      "wind_direction_deg": 204,
      "precip_prob": 9
    },
    "Atlanta Braves @ Colorado Rockies": {
      "venue": "Coors Field",
      "latitude": 39.756,
      "longitude": -104.994,
      "forecast_hour_utc": "2026-05-03T19:00",
      "commence_time_utc": "2026-05-03T19:10:00Z",
      "temp_f": 76.3,
      "wind_speed_mph": 8.8,
      "wind_direction_deg": 30,
      "precip_prob": 0
    },
    "Cleveland Guardians @ Athletics": {
      "venue": "Sutter Health Park",
      "latitude": 38.5804,
      "longitude": -121.5138,
      "forecast_hour_utc": "2026-05-03T20:00",
      "commence_time_utc": "2026-05-03T20:05:00Z",
      "temp_f": 67.8,
      "wind_speed_mph": 9.3,
      "wind_direction_deg": 226,
      "precip_prob": 1
    },
    "New York Mets @ Los Angeles Angels": {
      "venue": "Angel Stadium",
      "latitude": 33.8003,
      "longitude": -117.8827,
      "forecast_hour_utc": "2026-05-03T20:00",
      "commence_time_utc": "2026-05-03T20:07:00Z",
      "temp_f": 66.3,
      "wind_speed_mph": 7.9,
      "wind_direction_deg": 250,
      "precip_prob": 0
    },
    "Kansas City Royals @ Seattle Mariners": {
      "venue": "T-Mobile Park",
      "latitude": 47.5914,
      "longitude": -122.3325,
      "forecast_hour_utc": "2026-05-03T20:00",
      "commence_time_utc": "2026-05-03T20:10:00Z",
      "temp_f": 74.6,
      "wind_speed_mph": 7.2,
      "wind_direction_deg": 351,
      "precip_prob": 0
    },
    "Chicago White Sox @ San Diego Padres": {
      "venue": "Petco Park",
      "latitude": 32.7073,
      "longitude": -117.157,
      "forecast_hour_utc": "2026-05-03T20:00",
      "commence_time_utc": "2026-05-03T20:10:00Z",
      "temp_f": 65.0,
      "wind_speed_mph": 9.2,
      "wind_direction_deg": 277,
      "precip_prob": 0
    },
    "Texas Rangers @ Detroit Tigers": {
      "venue": "Comerica Park",
      "latitude": 42.339,
      "longitude": -83.0485,
      "forecast_hour_utc": "2026-05-03T23:00",
      "commence_time_utc": "2026-05-03T23:20:00Z",
      "temp_f": 63.4,
      "wind_speed_mph": 16.9,
      "wind_direction_deg": 227,
      "precip_prob": 3
    }
  },
  "errors": []
}