{
  "fetched_at_utc": "2026-04-28T20:35:47.579387Z",
  "odds_source": "/Users/robertseipel/Desktop/bettingsim/bettingsim/data/odds/live_mlb_odds.json",
  "games_date_et": "2026-04-28",
  "weather": {
    "Tampa Bay Rays @ Cleveland Guardians": {
      "venue": "Progressive Field",
      "latitude": 41.4962,
      "longitude": -81.6852,
      "forecast_hour_utc": "2026-04-28T22:00",
      "commence_time_utc": "2026-04-28T22:10:00Z",
      "temp_f": 59.2,
      "wind_speed_mph": 12.0,
      "wind_direction_deg": 285,
      "precip_prob": 0
    },
    "Houston Astros @ Baltimore Orioles": {
      "venue": "Oriole Park at Camden Yards",
      "latitude": 39.2839,
      "longitude": -76.6217,
      "forecast_hour_utc": "2026-04-28T23:00",
      "commence_time_utc": "2026-04-28T22:35:00Z",
      "temp_f": 59.5,
      "wind_speed_mph": 8.1,
      "wind_direction_deg": 118,
      "precip_prob": 1
    },
    "Colorado Rockies @ Cincinnati Reds": {
      "venue": "Great American Ball Park",
      "latitude": 39.0974,
      "longitude": -84.5066,
      "forecast_hour_utc": "2026-04-28T23:00",
      "commence_time_utc": "2026-04-28T22:40:00Z",
      "temp_f": 68.2,
      "wind_speed_mph": 5.7,
      "wind_direction_deg": 288,
      "precip_prob": 0
    },
    "St. Louis Cardinals @ Pittsburgh Pirates": {
      "venue": "PNC Park",
      "latitude": 40.4469,
      "longitude": -80.0057,
      "forecast_hour_utc": "2026-04-28T23:00",
      "commence_time_utc": "2026-04-28T22:40:00Z",
      "temp_f": 70.9,
      "wind_speed_mph": 8.6,
      "wind_direction_deg": 229,
      "precip_prob": 14
    },
    "San Francisco Giants @ Philadelphia Phillies": {
      "venue": "Citizens Bank Park",
      "latitude": 39.9061,
      "longitude": -75.1665,
      "forecast_hour_utc": "2026-04-28T23:00",
      "commence_time_utc": "2026-04-28T22:40:00Z",
      "temp_f": 60.7,
      "wind_speed_mph": 7.2,
      "wind_direction_deg": 184,
      "precip_prob": 4
    },
    "Boston Red Sox @ Toronto Blue Jays": {
      "venue": "Rogers Centre",
      "latitude": 43.6414,
      "longitude": -79.3894,
      "forecast_hour_utc": "2026-04-28T23:00",
      "commence_time_utc": "2026-04-28T23:07:00Z",
      "temp_f": 52.3,
      "wind_speed_mph": 1.8,
      "wind_direction_deg": 60,
      "precip_prob": 11
    },
    "Washington Nationals @ New York Mets": {
      "venue": "Citi Field",
      "latitude": 40.7571,
      "longitude": -73.8458,
      "forecast_hour_utc": "2026-04-28T23:00",
      "commence_time_utc": "2026-04-28T23:10:00Z",
      "temp_f": 55.5,
      "wind_speed_mph": 8.0,
      "wind_direction_deg": 167,
      "precip_prob": 5
    },
    "Detroit Tigers @ Atlanta Braves": {
      "venue": "Truist Park",
      "latitude": 33.8906,
      "longitude": -84.4678,
      "forecast_hour_utc": "2026-04-28T23:00",
      "commence_time_utc": "2026-04-28T23:15:00Z",
      "temp_f": 64.4,
      "wind_speed_mph": 5.6,
      "wind_direction_deg": 241,
      "precip_prob": 1
    },
    "Seattle Mariners @ Minnesota Twins": {
      "venue": "Target Field",
      "latitude": 44.9817,
      "longitude": -93.2776,
      "forecast_hour_utc": "2026-04-29T00:00",
      "commence_time_utc": "2026-04-28T23:40:00Z",
      "temp_f": 51.9,
      "wind_speed_mph": 8.3,
      "wind_direction_deg": 303,
      "precip_prob": 0
    },
    "Los Angeles Angels @ Chicago White Sox": {
      "venue": "Rate Field",
      "latitude": 41.8299,
      "longitude": -87.6338,
      "forecast_hour_utc": "2026-04-29T00:00",
      "commence_time_utc": "2026-04-28T23:40:00Z",
      "temp_f": 57.6,
      "wind_speed_mph": 6.8,
      "wind_direction_deg": 214,
      "precip_prob": 3
    },
    "Arizona Diamondbacks @ Milwaukee Brewers": {
      "venue": "American Family Field",
      "latitude": 43.028,
      "longitude": -87.9712,
      "forecast_hour_utc": "2026-04-29T00:00",
      "commence_time_utc": "2026-04-28T23:40:00Z",
      "temp_f": 61.9,
      "wind_speed_mph": 7.6,
      "wind_direction_deg": 317,
      "precip_prob": 1
    },
    "New York Yankees @ Texas Rangers": {
      "venue": "Globe Life Field",
      "latitude": 32.7473,
      "longitude": -97.0819,
      "forecast_hour_utc": "2026-04-29T00:00",
      "commence_time_utc": "2026-04-29T00:05:00Z",
      "temp_f": 70.6,
      "wind_speed_mph": 7.4,
      "wind_direction_deg": 70,
      "precip_prob": 48
    },
    "Kansas City Royals @ Athletics": {
      "venue": "Sutter Health Park",
      "latitude": 38.5804,
      "longitude": -121.5138,
      "forecast_hour_utc": "2026-04-29T02:00",
      "commence_time_utc": "2026-04-29T01:40:00Z",
      "temp_f": 71.2,
      "wind_speed_mph": 7.3,
      "wind_direction_deg": 236,
      "precip_prob": 0
    },
    "Chicago Cubs @ San Diego Padres": {
      "venue": "Petco Park",
      "latitude": 32.7073,
      "longitude": -117.157,
      "forecast_hour_utc": "2026-04-29T02:00",
      "commence_time_utc": "2026-04-29T01:40:00Z",
      "temp_f": 63.6,
      "wind_speed_mph": 7.7,
      "wind_direction_deg": 322,
      "precip_prob": 0
    },
    "Miami Marlins @ Los Angeles Dodgers": {
      "venue": "Dodger Stadium",
      "latitude": 34.0739,
      "longitude": -118.24,
      "forecast_hour_utc": "2026-04-29T02:00",
      "commence_time_utc": "2026-04-29T02:10:00Z",
      "temp_f": 62.1,
      "wind_speed_mph": 5.7,
      "wind_direction_deg": 249,
      "precip_prob": 0
    }
  },
  "errors": []
}