{
  "fetched_at_utc": "2026-04-13T22:55:45.949182Z",
  "odds_source": "/Users/robertseipel/Desktop/bettingsim/bettingsim/data/odds/live_mlb_odds.json",
  "games_date_et": "2026-04-13",
  "weather": {
    "Houston Astros @ Seattle Mariners": {
      "venue": "T-Mobile Park",
      "latitude": 47.5914,
      "longitude": -122.3325,
      "forecast_hour_utc": "2026-04-13T20:00",
      "commence_time_utc": "2026-04-13T20:10:00Z",
      "temp_f": 52.8,
      "wind_speed_mph": 7.5,
      "wind_direction_deg": 217,
      "precip_prob": 6
    },
    "Arizona Diamondbacks @ Baltimore Orioles": {
      "venue": "Oriole Park at Camden Yards",
      "latitude": 39.2839,
      "longitude": -76.6217,
      "forecast_hour_utc": "2026-04-13T23:00",
      "commence_time_utc": "2026-04-13T22:35:00Z",
      "temp_f": 78.2,
      "wind_speed_mph": 10.8,
      "wind_direction_deg": 218,
      "precip_prob": 0
    },
    "Washington Nationals @ Pittsburgh Pirates": {
      "venue": "PNC Park",
      "latitude": 40.4469,
      "longitude": -80.0057,
      "forecast_hour_utc": "2026-04-13T23:00",
      "commence_time_utc": "2026-04-13T22:40:00Z",
      "temp_f": 78.1,
      "wind_speed_mph": 13.5,
      "wind_direction_deg": 223,
      "precip_prob": 1
    },
    "Chicago Cubs @ Philadelphia Phillies": {
      "venue": "Citizens Bank Park",
      "latitude": 39.9061,
      "longitude": -75.1665,
      "forecast_hour_utc": "2026-04-13T23:00",
      "commence_time_utc": "2026-04-13T22:40:00Z",
      "temp_f": 76.5,
      "wind_speed_mph": 11.5,
      "wind_direction_deg": 216,
      "precip_prob": 0
    },
    "Los Angeles Angels @ New York Yankees": {
      "venue": "Yankee Stadium",
      "latitude": 40.8296,
      "longitude": -73.9265,
      "forecast_hour_utc": "2026-04-13T23:00",
      "commence_time_utc": "2026-04-13T23:05:00Z",
      "temp_f": 77.8,
      "wind_speed_mph": 12.2,
      "wind_direction_deg": 227,
      "precip_prob": 1
    },
    "Miami Marlins @ Atlanta Braves": {
      "venue": "Truist Park",
      "latitude": 33.8906,
      "longitude": -84.4678,
      "forecast_hour_utc": "2026-04-13T23:00",
      "commence_time_utc": "2026-04-13T23:15:00Z",
      "temp_f": 79.8,
      "wind_speed_mph": 7.0,
      "wind_direction_deg": 230,
      "precip_prob": 0
    },
    "Boston Red Sox @ Minnesota Twins": {
      "venue": "Target Field",
      "latitude": 44.9817,
      "longitude": -93.2776,
      "forecast_hour_utc": "2026-04-14T00:00",
      "commence_time_utc": "2026-04-13T23:40:00Z",
      "temp_f": 61.2,
      "wind_speed_mph": 5.7,
      "wind_direction_deg": 48,
      "precip_prob": 39
    },
    "Cleveland Guardians @ St. Louis Cardinals": {
      "venue": "Busch Stadium",
      "latitude": 38.6226,
      "longitude": -90.1928,
      "forecast_hour_utc": "2026-04-14T00:00",
      "commence_time_utc": "2026-04-13T23:45:00Z",
      "temp_f": 79.8,
      "wind_speed_mph": 13.7,
      "wind_direction_deg": 191,
      "precip_prob": 3
    },
    "Texas Rangers @ Athletics": {
      "venue": "Sutter Health Park",
      "latitude": 38.5804,
      "longitude": -121.5138,
      "forecast_hour_utc": "2026-04-14T02:00",
      "commence_time_utc": "2026-04-14T01:40:00Z",
      "temp_f": 62.1,
      "wind_speed_mph": 0.6,
      "wind_direction_deg": 315,
      "precip_prob": 0
    },
    "New York Mets @ Los Angeles Dodgers": {
      "venue": "Dodger Stadium",
      "latitude": 34.0739,
      "longitude": -118.24,
      "forecast_hour_utc": "2026-04-14T02:00",
      "commence_time_utc": "2026-04-14T02:10:00Z",
      "temp_f": 59.7,
      "wind_speed_mph": 5.9,
      "wind_direction_deg": 263,
      "precip_prob": 7
    }
  },
  "errors": []
}