{
  "fetched_at_utc": "2026-04-27T20:45:02.639110Z",
  "odds_source": "/Users/robertseipel/Desktop/bettingsim/bettingsim/data/odds/live_mlb_odds.json",
  "games_date_et": "2026-04-27",
  "weather": {
    "Tampa Bay Rays @ Cleveland Guardians": {
      "venue": "Progressive Field",
      "latitude": 41.4962,
      "longitude": -81.6852,
      "forecast_hour_utc": "2026-04-27T22:00",
      "commence_time_utc": "2026-04-27T22:10:00Z",
      "temp_f": 74.8,
      "wind_speed_mph": 11.6,
      "wind_direction_deg": 140,
      "precip_prob": 0
    },
    "St. Louis Cardinals @ Pittsburgh Pirates": {
      "venue": "PNC Park",
      "latitude": 40.4469,
      "longitude": -80.0057,
      "forecast_hour_utc": "2026-04-27T23:00",
      "commence_time_utc": "2026-04-27T22:40:00Z",
      "temp_f": 73.3,
      "wind_speed_mph": 12.2,
      "wind_direction_deg": 116,
      "precip_prob": 0
    },
    "Boston Red Sox @ Toronto Blue Jays": {
      "venue": "Rogers Centre",
      "latitude": 43.6414,
      "longitude": -79.3894,
      "forecast_hour_utc": "2026-04-27T23:00",
      "commence_time_utc": "2026-04-27T23:07:00Z",
      "temp_f": 51.8,
      "wind_speed_mph": 12.7,
      "wind_direction_deg": 64,
      "precip_prob": 0
    },
    "Seattle Mariners @ Minnesota Twins": {
      "venue": "Target Field",
      "latitude": 44.9817,
      "longitude": -93.2776,
      "forecast_hour_utc": "2026-04-28T00:00",
      "commence_time_utc": "2026-04-27T23:40:00Z",
      "temp_f": 47.9,
      "wind_speed_mph": 10.9,
      "wind_direction_deg": 316,
      "precip_prob": 33
    },
    "Los Angeles Angels @ Chicago White Sox": {
      "venue": "Rate Field",
      "latitude": 41.8299,
      "longitude": -87.6338,
      "forecast_hour_utc": "2026-04-28T00:00",
      "commence_time_utc": "2026-04-27T23:40:00Z",
      "temp_f": 62.5,
      "wind_speed_mph": 0.6,
      "wind_direction_deg": 225,
      "precip_prob": 70
    },
    "New York Yankees @ Texas Rangers": {
      "venue": "Globe Life Field",
      "latitude": 32.7473,
      "longitude": -97.0819,
      "forecast_hour_utc": "2026-04-28T00:00",
      "commence_time_utc": "2026-04-28T00:05:00Z",
      "temp_f": 90.6,
      "wind_speed_mph": 1.2,
      "wind_direction_deg": 112,
      "precip_prob": 4
    },
    "Chicago Cubs @ San Diego Padres": {
      "venue": "Petco Park",
      "latitude": 32.7073,
      "longitude": -117.157,
      "forecast_hour_utc": "2026-04-28T02:00",
      "commence_time_utc": "2026-04-28T01:40:00Z",
      "temp_f": 62.1,
      "wind_speed_mph": 8.4,
      "wind_direction_deg": 312,
      "precip_prob": 0
    },
    "Miami Marlins @ Los Angeles Dodgers": {
      "venue": "Dodger Stadium",
      "latitude": 34.0739,
      "longitude": -118.24,
      "forecast_hour_utc": "2026-04-28T02:00",
      "commence_time_utc": "2026-04-28T02:10:00Z",
      "temp_f": 60.0,
      "wind_speed_mph": 8.6,
      "wind_direction_deg": 249,
      "precip_prob": 0
    }
  },
  "errors": []
}