{
  "fetched_at_utc": "2026-04-24T20:32:48.510903Z",
  "odds_source": "/Users/robertseipel/Desktop/bettingsim/bettingsim/data/odds/live_mlb_odds.json",
  "games_date_et": "2026-04-24",
  "weather": {
    "Detroit Tigers @ Cincinnati Reds": {
      "venue": "Great American Ball Park",
      "latitude": 39.0974,
      "longitude": -84.5066,
      "forecast_hour_utc": "2026-04-24T23:00",
      "commence_time_utc": "2026-04-24T22:40:00Z",
      "temp_f": 80.4,
      "wind_speed_mph": 9.1,
      "wind_direction_deg": 211,
      "precip_prob": 17
    },
    "Boston Red Sox @ Baltimore Orioles": {
      "venue": "Oriole Park at Camden Yards",
      "latitude": 39.2839,
      "longitude": -76.6217,
      "forecast_hour_utc": "2026-04-24T23:00",
      "commence_time_utc": "2026-04-24T23:05:00Z",
      "temp_f": 70.0,
      "wind_speed_mph": 4.1,
      "wind_direction_deg": 158,
      "precip_prob": 6
    },
    "Cleveland Guardians @ Toronto Blue Jays": {
      "venue": "Rogers Centre",
      "latitude": 43.6414,
      "longitude": -79.3894,
      "forecast_hour_utc": "2026-04-24T23:00",
      "commence_time_utc": "2026-04-24T23:07:00Z",
      "temp_f": 43.3,
      "wind_speed_mph": 10.4,
      "wind_direction_deg": 65,
      "precip_prob": 1
    },
    "Colorado Rockies @ New York Mets": {
      "venue": "Citi Field",
      "latitude": 40.7571,
      "longitude": -73.8458,
      "forecast_hour_utc": "2026-04-24T23:00",
      "commence_time_utc": "2026-04-24T23:10:00Z",
      "temp_f": 52.9,
      "wind_speed_mph": 10.6,
      "wind_direction_deg": 138,
      "precip_prob": 1
    },
    "Minnesota Twins @ Tampa Bay Rays": {
      "venue": "Tropicana Field",
      "latitude": 27.7682,
      "longitude": -82.6534,
      "forecast_hour_utc": "2026-04-24T23:00",
      "commence_time_utc": "2026-04-24T23:10:00Z",
      "temp_f": 77.4,
      "wind_speed_mph": 8.6,
      "wind_direction_deg": 277,
      "precip_prob": 0
    },
    "Philadelphia Phillies @ Atlanta Braves": {
      "venue": "Truist Park",
      "latitude": 33.8906,
      "longitude": -84.4678,
      "forecast_hour_utc": "2026-04-24T23:00",
      "commence_time_utc": "2026-04-24T23:15:00Z",
      "temp_f": 76.1,
      "wind_speed_mph": 8.1,
      "wind_direction_deg": 166,
      "precip_prob": 0
    },
    "Los Angeles Angels @ Kansas City Royals": {
      "venue": "Kauffman Stadium",
      "latitude": 39.0514,
      "longitude": -94.4805,
      "forecast_hour_utc": "2026-04-25T00:00",
      "commence_time_utc": "2026-04-24T23:40:00Z",
      "temp_f": 68.4,
      "wind_speed_mph": 5.4,
      "wind_direction_deg": 38,
      "precip_prob": 0
    },
    "Washington Nationals @ Chicago White Sox": {
      "venue": "Rate Field",
      "latitude": 41.8299,
      "longitude": -87.6338,
      "forecast_hour_utc": "2026-04-25T00:00",
      "commence_time_utc": "2026-04-24T23:40:00Z",
      "temp_f": 62.8,
      "wind_speed_mph": 4.2,
      "wind_direction_deg": 25,
      "precip_prob": 2
    },
    "Pittsburgh Pirates @ Milwaukee Brewers": {
      "venue": "American Family Field",
      "latitude": 43.028,
      "longitude": -87.9712,
      "forecast_hour_utc": "2026-04-25T00:00",
      "commence_time_utc": "2026-04-24T23:40:00Z",
      "temp_f": 61.6,
      "wind_speed_mph": 10.3,
      "wind_direction_deg": 309,
      "precip_prob": 0
    },
    "Athletics @ Texas Rangers": {
      "venue": "Globe Life Field",
      "latitude": 32.7473,
      "longitude": -97.0819,
      "forecast_hour_utc": "2026-04-25T00:00",
      "commence_time_utc": "2026-04-25T00:05:00Z",
      "temp_f": 86.6,
      "wind_speed_mph": 8.8,
      "wind_direction_deg": 285,
      "precip_prob": 0
    },
    "New York Yankees @ Houston Astros": {
      "venue": "Daikin Park",
      "latitude": 29.7573,
      "longitude": -95.3555,
      "forecast_hour_utc": "2026-04-25T00:00",
      "commence_time_utc": "2026-04-25T00:10:00Z",
      "temp_f": 76.7,
      "wind_speed_mph": 7.0,
      "wind_direction_deg": 153,
      "precip_prob": 21
    },
    "Seattle Mariners @ St. Louis Cardinals": {
      "venue": "Busch Stadium",
      "latitude": 38.6226,
      "longitude": -90.1928,
      "forecast_hour_utc": "2026-04-25T00:00",
      "commence_time_utc": "2026-04-25T00:15:00Z",
      "temp_f": 63.8,
      "wind_speed_mph": 4.1,
      "wind_direction_deg": 13,
      "precip_prob": 16
    },
    "Chicago Cubs @ Los Angeles Dodgers": {
      "venue": "Dodger Stadium",
      "latitude": 34.0739,
      "longitude": -118.24,
      "forecast_hour_utc": "2026-04-25T02:00",
      "commence_time_utc": "2026-04-25T02:15:00Z",
      "temp_f": 63.0,
      "wind_speed_mph": 7.3,
      "wind_direction_deg": 243,
      "precip_prob": 0
    },
    "Miami Marlins @ San Francisco Giants": {
      "venue": "Oracle Park",
      "latitude": 37.7786,
      "longitude": -122.3893,
      "forecast_hour_utc": "2026-04-25T02:00",
      "commence_time_utc": "2026-04-25T02:15:00Z",
      "temp_f": 54.6,
      "wind_speed_mph": 11.7,
      "wind_direction_deg": 275,
      "precip_prob": 1
    }
  },
  "errors": []
}