{
  "fetched_at_utc": "2026-04-17T16:05:03.950998Z",
  "odds_source": "/Users/robertseipel/Desktop/bettingsim/bettingsim/data/odds/live_mlb_odds.json",
  "games_date_et": "2026-04-17",
  "weather": {
    "New York Mets @ Chicago Cubs": {
      "venue": "Wrigley Field",
      "latitude": 41.9484,
      "longitude": -87.6553,
      "forecast_hour_utc": "2026-04-17T18:00",
      "commence_time_utc": "2026-04-17T18:20:00Z",
      "temp_f": 73.5,
      "wind_speed_mph": 10.7,
      "wind_direction_deg": 157,
      "precip_prob": 0
    },
    "Baltimore Orioles @ Cleveland Guardians": {
      "venue": "Progressive Field",
      "latitude": 41.4962,
      "longitude": -81.6852,
      "forecast_hour_utc": "2026-04-17T22:00",
      "commence_time_utc": "2026-04-17T22:10:00Z",
      "temp_f": 65.1,
      "wind_speed_mph": 6.5,
      "wind_direction_deg": 27,
      "precip_prob": 0
    },
    "Atlanta Braves @ Philadelphia Phillies": {
      "venue": "Citizens Bank Park",
      "latitude": 39.9061,
      "longitude": -75.1665,
      "forecast_hour_utc": "2026-04-17T23:00",
      "commence_time_utc": "2026-04-17T22:40:00Z",
      "temp_f": 77.8,
      "wind_speed_mph": 9.0,
      "wind_direction_deg": 333,
      "precip_prob": 3
    },
    "San Francisco Giants @ Washington Nationals": {
      "venue": "Nationals Park",
      "latitude": 38.873,
      "longitude": -77.0075,
      "forecast_hour_utc": "2026-04-17T23:00",
      "commence_time_utc": "2026-04-17T22:45:00Z",
      "temp_f": 79.5,
      "wind_speed_mph": 6.5,
      "wind_direction_deg": 322,
      "precip_prob": 0
    },
    "Tampa Bay Rays @ Pittsburgh Pirates": {
      "venue": "PNC Park",
      "latitude": 40.4469,
      "longitude": -80.0057,
      "forecast_hour_utc": "2026-04-17T23:00",
      "commence_time_utc": "2026-04-17T22:45:00Z",
      "temp_f": 74.7,
      "wind_speed_mph": 2.2,
      "wind_direction_deg": 360,
      "precip_prob": 0
    },
    "Kansas City Royals @ New York Yankees": {
      "venue": "Yankee Stadium",
      "latitude": 40.8296,
      "longitude": -73.9265,
      "forecast_hour_utc": "2026-04-17T23:00",
      "commence_time_utc": "2026-04-17T23:05:00Z",
      "temp_f": 74.6,
      "wind_speed_mph": 8.7,
      "wind_direction_deg": 347,
      "precip_prob": 6
    },
    "Milwaukee Brewers @ Miami Marlins": {
      "venue": "loanDepot park",
      "latitude": 25.7781,
      "longitude": -80.2197,
      "forecast_hour_utc": "2026-04-17T23:00",
      "commence_time_utc": "2026-04-17T23:10:00Z",
      "temp_f": 78.0,
      "wind_speed_mph": 8.2,
      "wind_direction_deg": 73,
      "precip_prob": 1
    },
    "Detroit Tigers @ Boston Red Sox": {
      "venue": "Fenway Park",
      "latitude": 42.3467,
      "longitude": -71.0972,
      "forecast_hour_utc": "2026-04-17T23:00",
      "commence_time_utc": "2026-04-17T23:15:00Z",
      "temp_f": 52.4,
      "wind_speed_mph": 5.9,
      "wind_direction_deg": 72,
      "precip_prob": 2
    },
    "St. Louis Cardinals @ Houston Astros": {
      "venue": "Daikin Park",
      "latitude": 29.7573,
      "longitude": -95.3555,
      "forecast_hour_utc": "2026-04-18T00:00",
      "commence_time_utc": "2026-04-18T00:10:00Z",
      "temp_f": 73.8,
      "wind_speed_mph": 10.8,
      "wind_direction_deg": 159,
      "precip_prob": 1
    },
    "Cincinnati Reds @ Minnesota Twins": {
      "venue": "Target Field",
      "latitude": 44.9817,
      "longitude": -93.2776,
      "forecast_hour_utc": "2026-04-18T00:00",
      "commence_time_utc": "2026-04-18T00:10:00Z",
      "temp_f": 45.1,
      "wind_speed_mph": 11.3,
      "wind_direction_deg": 326,
      "precip_prob": 1
    },
    "Los Angeles Dodgers @ Colorado Rockies": {
      "venue": "Coors Field",
      "latitude": 39.756,
      "longitude": -104.994,
      "forecast_hour_utc": "2026-04-18T01:00",
      "commence_time_utc": "2026-04-18T00:40:00Z",
      "temp_f": 40.0,
      "wind_speed_mph": 7.0,
      "wind_direction_deg": 48,
      "precip_prob": 2
    },
    "San Diego Padres @ Los Angeles Angels": {
      "venue": "Angel Stadium",
      "latitude": 33.8003,
      "longitude": -117.8827,
      "forecast_hour_utc": "2026-04-18T02:00",
      "commence_time_utc": "2026-04-18T01:38:00Z",
      "temp_f": 71.1,
      "wind_speed_mph": 5.7,
      "wind_direction_deg": 281,
      "precip_prob": 0
    },
    "Texas Rangers @ Seattle Mariners": {
      "venue": "T-Mobile Park",
      "latitude": 47.5914,
      "longitude": -122.3325,
      "forecast_hour_utc": "2026-04-18T02:00",
      "commence_time_utc": "2026-04-18T01:40:00Z",
      "temp_f": 51.2,
      "wind_speed_mph": 4.5,
      "wind_direction_deg": 6,
      "precip_prob": 0
    },
    "Toronto Blue Jays @ Arizona Diamondbacks": {
      "venue": "Chase Field",
      "latitude": 33.4453,
      "longitude": -112.0667,
      "forecast_hour_utc": "2026-04-18T02:00",
      "commence_time_utc": "2026-04-18T01:40:00Z",
      "temp_f": 79.7,
      "wind_speed_mph": 4.2,
      "wind_direction_deg": 245,
      "precip_prob": 0
    },
    "Chicago White Sox @ Athletics": {
      "venue": "Sutter Health Park",
      "latitude": 38.5804,
      "longitude": -121.5138,
      "forecast_hour_utc": "2026-04-18T02:00",
      "commence_time_utc": "2026-04-18T01:40:00Z",
      "temp_f": 71.8,
      "wind_speed_mph": 2.5,
      "wind_direction_deg": 270,
      "precip_prob": 0
    }
  },
  "errors": []
}