{
  "fetched_at_utc": "2026-04-30T01:51:33.251741Z",
  "odds_source": "/Users/robertseipel/Desktop/bettingsim/bettingsim/data/odds/live_mlb_odds.json",
  "games_date_et": "2026-04-29",
  "weather": {
    "Tampa Bay Rays @ Cleveland Guardians": {
      "venue": "Progressive Field",
      "latitude": 41.4962,
      "longitude": -81.6852,
      "forecast_hour_utc": "2026-04-30T00:00",
      "commence_time_utc": "2026-04-29T17:10:00Z",
      "temp_f": 46.4,
      "wind_speed_mph": 7.0,
      "wind_direction_deg": 333,
      "precip_prob": 3
    },
    "Los Angeles Angels @ Chicago White Sox": {
      "venue": "Rate Field",
      "latitude": 41.8299,
      "longitude": -87.6338,
      "forecast_hour_utc": "2026-04-30T00:00",
      "commence_time_utc": "2026-04-29T17:10:00Z",
      "temp_f": 44.2,
      "wind_speed_mph": 10.7,
      "wind_direction_deg": 348,
      "precip_prob": 2
    },
    "Seattle Mariners @ Minnesota Twins": {
      "venue": "Target Field",
      "latitude": 44.9817,
      "longitude": -93.2776,
      "forecast_hour_utc": "2026-04-30T00:00",
      "commence_time_utc": "2026-04-29T17:40:00Z",
      "temp_f": 50.1,
      "wind_speed_mph": 6.6,
      "wind_direction_deg": 315,
      "precip_prob": 0
    },
    "New York Yankees @ Texas Rangers": {
      "venue": "Globe Life Field",
      "latitude": 32.7473,
      "longitude": -97.0819,
      "forecast_hour_utc": "2026-04-30T00:00",
      "commence_time_utc": "2026-04-29T18:35:00Z",
      "temp_f": 60.9,
      "wind_speed_mph": 9.5,
      "wind_direction_deg": 352,
      "precip_prob": 13
    },
    "Boston Red Sox @ Toronto Blue Jays": {
      "venue": "Rogers Centre",
      "latitude": 43.6414,
      "longitude": -79.3894,
      "forecast_hour_utc": "2026-04-30T00:00",
      "commence_time_utc": "2026-04-29T19:07:00Z",
      "temp_f": 47.2,
      "wind_speed_mph": 6.7,
      "wind_direction_deg": 312,
      "precip_prob": 16
    },
    "Miami Marlins @ Los Angeles Dodgers": {
      "venue": "Dodger Stadium",
      "latitude": 34.0739,
      "longitude": -118.24,
      "forecast_hour_utc": "2026-04-30T00:00",
      "commence_time_utc": "2026-04-29T19:10:00Z",
      "temp_f": 69.4,
      "wind_speed_mph": 8.6,
      "wind_direction_deg": 253,
      "precip_prob": 0
    },
    "Chicago Cubs @ San Diego Padres": {
      "venue": "Petco Park",
      "latitude": 32.7073,
      "longitude": -117.157,
      "forecast_hour_utc": "2026-04-30T00:00",
      "commence_time_utc": "2026-04-29T20:10:00Z",
      "temp_f": 67.7,
      "wind_speed_mph": 8.3,
      "wind_direction_deg": 306,
      "precip_prob": 0
    },
    "Colorado Rockies @ Cincinnati Reds": {
      "venue": "Great American Ball Park",
      "latitude": 39.0974,
      "longitude": -84.5066,
      "forecast_hour_utc": "2026-04-30T00:00",
      "commence_time_utc": "2026-04-29T22:40:00Z",
      "temp_f": 58.6,
      "wind_speed_mph": 7.0,
      "wind_direction_deg": 301,
      "precip_prob": 1
    },
    "St. Louis Cardinals @ Pittsburgh Pirates": {
      "venue": "PNC Park",
      "latitude": 40.4469,
      "longitude": -80.0057,
      "forecast_hour_utc": "2026-04-30T00:00",
      "commence_time_utc": "2026-04-29T22:40:00Z",
      "temp_f": 55.2,
      "wind_speed_mph": 10.8,
      "wind_direction_deg": 294,
      "precip_prob": 7
    },
    "Washington Nationals @ New York Mets": {
      "venue": "Citi Field",
      "latitude": 40.7571,
      "longitude": -73.8458,
      "forecast_hour_utc": "2026-04-30T00:00",
      "commence_time_utc": "2026-04-29T23:10:00Z",
      "temp_f": 49.9,
      "wind_speed_mph": 6.9,
      "wind_direction_deg": 159,
      "precip_prob": 17
    },
    "Detroit Tigers @ Atlanta Braves": {
      "venue": "Truist Park",
      "latitude": 33.8906,
      "longitude": -84.4678,
      "forecast_hour_utc": "2026-04-30T00:00",
      "commence_time_utc": "2026-04-29T23:15:00Z",
      "temp_f": 76.3,
      "wind_speed_mph": 5.4,
      "wind_direction_deg": 275,
      "precip_prob": 5
    },
    "Arizona Diamondbacks @ Milwaukee Brewers": {
      "venue": "American Family Field",
      "latitude": 43.028,
      "longitude": -87.9712,
      "forecast_hour_utc": "2026-04-30T00:00",
      "commence_time_utc": "2026-04-29T23:40:00Z",
      "temp_f": 43.4,
      "wind_speed_mph": 1.8,
      "wind_direction_deg": 330,
      "precip_prob": 20
    },
    "Kansas City Royals @ Athletics": {
      "venue": "Sutter Health Park",
      "latitude": 38.5804,
      "longitude": -121.5138,
      "forecast_hour_utc": "2026-04-30T02:00",
      "commence_time_utc": "2026-04-30T01:40:00Z",
      "temp_f": 74.1,
      "wind_speed_mph": 9.6,
      "wind_direction_deg": 239,
      "precip_prob": 0
    }
  },
  "errors": []
}